{
  "properties": [
    {
      "id": "P026",
      "title": "1 SILVER AVE",
      "address": "1 SILVER AVE",
      "city": "Glassboro, NJ",
      "beds": 17,
      "baths": 5,
      "status": "rented",
      "photo_folder_id": "1QVTUs88c41PoudjYPtQK2EuJS5bjkmpr",
      "photo_folder_name": "1 SILVER",
      "lat": 39.71344715,
      "lng": -75.11292559,
      "notes": "Coordinates from Google Sheet"
    },
    {
      "id": "P028",
      "title": "127 STATE ST",
      "address": "127 STATE ST",
      "city": "Glassboro, NJ",
      "baths": 0,
      "rent": 9000,
      "status": "available",
      "photo_folder_id": "1Cg0C5qNDMWst3_KfUsGlbSwljwC5KZXo",
      "photo_folder_name": "127 State ST",
      "lat": 39.7060528,
      "lng": -75.1106992,
      "notes": "Coordinates from Google Maps search"
    },
    {
      "id": "P025",
      "title": "101 E. NEW ST",
      "address": "101 E. NEW ST",
      "city": "Glassboro, NJ",
      "beds": 8,
      "baths": 2,
      "rent": 5200,
      "status": "available",
      "photo_folder_id": "1MS9mcTPJbVA6Oh08advP-g-x7GvXxIST",
      "photo_folder_name": "101 EAST NEW",
      "lat": null,
      "lng": null,
      "notes": "Need coordinates"
    },
    {
      "id": "P031",
      "title": "38 CARPENTER ST",
      "address": "38 CARPENTER ST",
      "city": "Glassboro, NJ",
      "type": "New Construction Coming Fall 2027 Sorority Row",
      "beds": 12,
      "baths": 6,
      "rent": 9900,
      "status": "available",
      "photo_folder_id": "10skcGxV0vOu56mOMCGA-bgDM4vnIEyf5",
      "photo_folder_name": "38 CARPENTER",
      "lat": null,
      "lng": null,
      "notes": "Need coordinates"
    },
    {
      "id": "P032",
      "title": "42 CARPENTER ST",
      "address": "42 CARPENTER ST",
      "city": "Glassboro, NJ",
      "type": "New Construction Coming Fall 2027 Sorority Row",
      "beds": 12,
      "baths": 6,
      "rent": 9900,
      "status": "available",
      "photo_folder_id": "1o-CAFAyClQ-HeL1x8O5OpOWitKhWkaZI",
      "photo_folder_name": "42 CARPENTER",
      "lat": null,
      "lng": null,
      "notes": "Need coordinates"
    },
    {
      "id": "P033",
      "title": "46 CARPENTER ST",
      "address": "46 CARPENTER ST",
      "city": "Glassboro, NJ",
      "type": "New Construction Coming Fall 2027 Sorority Row",
      "beds": 12,
      "baths": 6,
      "rent": 9900,
      "status": "available",
      "photo_folder_id": "17yxF5axiegs8g5KAfvEehsNZFvl60WWI",
      "photo_folder_name": "46 CARPENTER",
      "lat": null,
      "lng": null,
      "notes": "Need coordinates"
    },
    {
      "id": "P024",
      "title": "4 SILVER AVE",
      "address": "4 SILVER AVE",
      "city": "Glassboro, NJ",
      "beds": 5,
      "baths": 3,
      "rent": 4500,
      "status": "available",
      "photo_folder_id": "17j6Q4M1_7MW1Qn6JTgniOcHN_hqEWBRo",
      "photo_folder_name": "4 SILVER",
      "lat": null,
      "lng": null,
      "notes": "Need coordinates"
    },
    {
      "id": "P020",
      "title": "34 CARPENTER ST",
      "address": "34 CARPENTER ST",
      "city": "Glassboro, NJ",
      "beds": 7,
      "baths": 2,
      "rent": 4200,
      "status": "available",
      "photo_folder_id": "1EpFrC-RflSSVPwt23czr6fOHWGJ99kcq",
      "photo_folder_name": "34 CARPENTER",
      "lat": null,
      "lng": null,
      "notes": "Need coordinates"
    },
    {
      "id": "P023",
      "title": "18 WEST ST",
      "address": "18 WEST ST",
      "city": "Glassboro, NJ",
      "beds": 6,
      "baths": 3.5,
      "rent": 4000,
      "status": "available",
      "photo_folder_id": "1JDGrHLWSE_1i1Xq6XQxXMFAixbnVlFfH",
      "photo_folder_name": "18 WEST",
      "lat": null,
      "lng": null,
      "notes": "Need coordinates"
    },
    {
      "id": "P034",
      "title": "MIDWAY RD",
      "address": "MIDWAY RD",
      "city": "Glassboro, NJ",
      "type": "New Construction Coming Fall 2027 Reserve Now",
      "beds": 7,
      "baths": 3,
      "rent": 5600,
      "status": "available",
      "photo_folder_id": "1C2LhA1owWwG6A-zuJaYWI35SYgQ8sak2",
      "photo_folder_name": "Midway Rd (New Construction)",
      "lat": null,
      "lng": null,
      "notes": "Need coordinates"
    },
    {
      "id": "P022",
      "title": "202 CARPENTER ST",
      "address": "202 CARPENTER ST",
      "city": "Glassboro, NJ",
      "beds": 6,
      "baths": 3,
      "status": "rented",
      "photo_folder_id": "1Ca_Oq3-tqhJVdhROmcBPvsvDSwY8fdtK",
      "photo_folder_name": "202 CARPENTER",
      "lat": null,
      "lng": null,
      "notes": "Need coordinates"
    },
    {
      "id": "P021",
      "title": "5 SILVER AVE",
      "address": "5 SILVER AVE",
      "city": "Glassboro, NJ",
      "beds": 6,
      "baths": 2.5,
      "rent": 3900,
      "status": "available",
      "photo_folder_id": "1Y-rfu1EBpvnYoCW2DWiG3O80mnFAOcPX",
      "photo_folder_name": "5 Silver",
      "lat": null,
      "lng": null,
      "notes": "Need coordinates"
    },
    {
      "id": "P019",
      "title": "18 N. ACADEMY ST",
      "address": "18 N. ACADEMY ST",
      "city": "Glassboro, NJ",
      "beds": 7,
      "baths": 2,
      "rent": 3850,
      "status": "available",
      "photo_folder_id": "1xm0Gl9FH2AdMbWUTOum1wAuGO3ePPN5Q",
      "photo_folder_name": "18 NORTH ACADEMY",
      "lat": null,
      "lng": null,
      "notes": "Need coordinates"
    },
    {
      "id": "P018",
      "title": "601 MORRIS AVE",
      "address": "601 MORRIS AVE",
      "city": "Glassboro, NJ",
      "beds": 6,
      "baths": 3,
      "rent": 3750,
      "status": "available",
      "photo_folder_id": "1SYjXZ0BCIJzm3Wc6Px_n0fZcKZInhL2n",
      "photo_folder_name": "601 MORRIS",
      "lat": null,
      "lng": null,
      "notes": "Need coordinates"
    },
    {
      "id": "P017",
      "title": "7 NORMAL BLVD",
      "address": "7 NORMAL BLVD",
      "city": "Glassboro, NJ",
      "beds": 6,
      "baths": 2,
      "rent": 3750,
      "status": "available",
      "photo_folder_id": "1G5MfYkhDiqLwZum4gefZT92uwxMDnFzI",
      "photo_folder_name": "7 NORMAL",
      "lat": null,
      "lng": null,
      "notes": "Need coordinates"
    },
    {
      "id": "P016",
      "title": "311 W. NEW ST",
      "address": "311 W. NEW ST",
      "city": "Glassboro, NJ",
      "beds": 6,
      "baths": 2,
      "rent": 3750,
      "status": "available",
      "photo_folder_id": "1FDbZKeHo2T7X4rR2-SZjFiRtwNmtegVG",
      "photo_folder_name": "311 WEST NEW",
      "lat": null,
      "lng": null,
      "notes": "Need coordinates"
    },
    {
      "id": "P015",
      "title": "313 HAMILTON RD",
      "address": "313 HAMILTON RD",
      "city": "Glassboro, NJ",
      "beds": 6,
      "baths": 2,
      "rent": 3600,
      "status": "available",
      "photo_folder_id": "13AxFU1_qJFvyS3aKxW19ZCwd8dRpqauL",
      "photo_folder_name": "313 Hamilton",
      "lat": null,
      "lng": null,
      "notes": "Need coordinates"
    },
    {
      "id": "P014",
      "title": "309 W. NEW ST",
      "address": "309 W. NEW ST",
      "city": "Glassboro, NJ",
      "beds": 5,
      "baths": 2.5,
      "status": "rented",
      "photo_folder_id": "1QavagCMjRk2anoVoHGTto-cBshSXGOsY",
      "photo_folder_name": "309 WEST NEW",
      "lat": null,
      "lng": null,
      "notes": "Need coordinates"
    },
    {
      "id": "P013",
      "title": "109 STATE ST",
      "address": "109 STATE ST",
      "city": "Glassboro, NJ",
      "beds": 6,
      "baths": 2,
      "status": "rented",
      "photo_folder_id": "19RySpKOINYk3E_m2vePTl0jwUt25s7yN",
      "photo_folder_name": "109 STATE",
      "lat": null,
      "lng": null,
      "notes": "Need coordinates"
    },
    {
      "id": "P012",
      "title": "410 W. HIGH ST",
      "address": "410 W. HIGH ST",
      "city": "Glassboro, NJ",
      "beds": 5,
      "baths": 2.5,
      "rent": 3250,
      "status": "available",
      "photo_folder_id": "1iCqQMGic0yrZjeGrHWD7fG6cTzM5Fpfy",
      "photo_folder_name": "410 WEST HIGH",
      "lat": null,
      "lng": null,
      "notes": "Need coordinates"
    },
    {
      "id": "P011",
      "title": "306 HAMILTON RD",
      "address": "306 HAMILTON RD",
      "city": "Glassboro, NJ",
      "beds": 5,
      "baths": 2.5,
      "rent": 3250,
      "status": "available",
      "photo_folder_id": "1WDXe8bmjmU63POz65qspmwU54zklyojj",
      "photo_folder_name": "306 HAMILTON",
      "lat": null,
      "lng": null,
      "notes": "Need coordinates"
    },
    {
      "id": "P010",
      "title": "110 STATE ST",
      "address": "110 STATE ST",
      "city": "Glassboro, NJ",
      "beds": 5,
      "baths": 2,
      "rent": 3125,
      "status": "available",
      "photo_folder_id": "1tj4msqcbhj9xQ6GUxeU-vtgwdwgE2qzE",
      "photo_folder_name": "110 STATE",
      "lat": 39.7056103,
      "lng": -75.1097153,
      "notes": "Coordinates from Google Maps search"
    },
    {
      "id": "P009",
      "title": "121 STATE ST",
      "address": "121 STATE ST",
      "city": "Glassboro, NJ",
      "beds": 5,
      "baths": 2,
      "rent": 3125,
      "status": "available",
      "photo_folder_id": "1IxexLQeRFR7O82pQh0_HVKy3kSSQVv6i",
      "photo_folder_name": "121 STATE",
      "lat": null,
      "lng": null,
      "notes": "Need coordinates"
    },
    {
      "id": "P008",
      "title": "614 HESTON RD",
      "address": "614 HESTON RD",
      "city": "Glassboro, NJ",
      "beds": 5,
      "baths": 2,
      "status": "rented",
      "photo_folder_id": "1dj0H2wzZSrQmxPhoE2xGEupTmQIDzWhw",
      "photo_folder_name": "614 HESTON",
      "lat": null,
      "lng": null,
      "notes": "Need coordinates"
    },
    {
      "id": "P007",
      "title": "146 E. HIGH ST",
      "address": "146 E. HIGH ST",
      "city": "Glassboro, NJ",
      "beds": 6,
      "baths": 2,
      "rent": 3000,
      "status": "available",
      "photo_folder_id": "1kNefDBSEYzVSAO2JAAwgMvsi4S8jVqlk",
      "photo_folder_name": "146 EAST HIGH",
      "lat": null,
      "lng": null,
      "notes": "Need coordinates"
    },
    {
      "id": "P006",
      "title": "4 WEST ST",
      "address": "4 WEST ST",
      "city": "Glassboro, NJ",
      "beds": 5,
      "baths": 2,
      "rent": 3000,
      "status": "available",
      "photo_folder_id": "1SNEvgK0CV0Rmz0LQZo494ULLPTrj-zhi",
      "photo_folder_name": "4 WEST",
      "lat": null,
      "lng": null,
      "notes": "Need coordinates"
    },
    {
      "id": "P005",
      "title": "122 STATE ST",
      "address": "122 STATE ST",
      "city": "Glassboro, NJ",
      "beds": 4,
      "baths": 2.5,
      "status": "rented",
      "photo_folder_id": "1gFbFT7A0g6zYv9ccUQ0jDvtFJsdihFW0",
      "photo_folder_name": "122 STATE",
      "lat": null,
      "lng": null,
      "notes": "Need coordinates"
    },
    {
      "id": "P004",
      "title": "11 SILVER AVE",
      "address": "11 SILVER AVE",
      "city": "Glassboro, NJ",
      "beds": 4,
      "baths": 1.5,
      "rent": 2700,
      "status": "available",
      "photo_folder_id": "14jvXFrzaEyIkxMOrIX0upXr8-LnwlZLT",
      "photo_folder_name": "11 SILVER",
      "lat": null,
      "lng": null,
      "notes": "Need coordinates"
    },
    {
      "id": "p003",
      "title": "50 CARPENTER ST",
      "address": "50 CARPENTER ST",
      "city": "Glassboro, NJ",
      "beds": 3,
      "baths": 2,
      "rent": 2175,
      "status": "available",
      "photo_folder_id": "1HH-D6-MgzKHZj9jF9Hh1R_zM8ZaC20MV",
      "photo_folder_name": "50 CARPENTER",
      "lat": null,
      "lng": null,
      "notes": "Need coordinates"
    },
    {
      "id": "p002",
      "title": "16 WEST ST",
      "address": "16 WEST ST",
      "city": "Glassboro, NJ",
      "beds": 3,
      "baths": 1,
      "rent": 2025,
      "status": "available",
      "photo_folder_id": "1oVXLPD0mAkX7lwi8eZrPO0uacuxmKc8y",
      "photo_folder_name": "16 WEST",
      "lat": null,
      "lng": null,
      "notes": "Need coordinates"
    },
    {
      "id": "p001",
      "title": "9 E. NEW ST",
      "address": "9 E. NEW ST",
      "city": "Glassboro, NJ",
      "beds": 3,
      "baths": 1,
      "rent": 1800,
      "status": "available",
      "photo_folder_id": "1YprVgtq0VtjJINoVyfUpJUVDkJMH99lp",
      "photo_folder_name": "9 EAST NEW",
      "lat": null,
      "lng": null,
      "notes": "Need coordinates"
    },
    {
      "id": "P027",
      "title": "110 N. MAIN ST",
      "address": "110 N MAIN ST",
      "city": "Glassboro, NJ",
      "status": "rented",
      "photo_folder_id": "1nrp7feQlcvRCMVDAYAOWlEkmDBXBPOd8",
      "photo_folder_name": "110 N Main",
      "lat": null,
      "lng": null,
      "notes": "Need coordinates"
    },
    {
      "id": "P029",
      "title": "113 STATE ST",
      "address": "113 STATE ST",
      "city": "Glassboro, NJ",
      "status": "rented",
      "photo_folder_id": "18JPFKTxO3ivsnu2AP7Cw47GEMPzsRfRI",
      "photo_folder_name": "113 State ST",
      "lat": null,
      "lng": null,
      "notes": "Need coordinates"
    },
    {
      "id": "P030",
      "title": "313 SILVER AVE",
      "address": "313 SILVER AVE",
      "city": "Glassboro, NJ",
      "status": "available",
      "photo_folder_id": "1X6BmJP9t4eMY6NRwHfe0rUahLkYOp3Yo",
      "photo_folder_name": "313 Silver Ave",
      "lat": null,
      "lng": null,
      "notes": "Need coordinates"
    },
    {
      "id": "P040",
      "title": "503 N. MAIN ST - GLASSBORO",
      "address": "503 N MAIN ST",
      "city": "Glassboro, NJ",
      "type": "Commercial",
      "sqft": 1250,
      "baths": 0.5,
      "rent": 2500,
      "status": "coming soon",
      "photo_folder_id": "1IxblT5vueVfxxA7dFLUQf2hfPTRv3bgS",
      "photo_folder_name": "503 NORTH MAIN",
      "lat": null,
      "lng": null,
      "notes": "Need coordinates"
    },
    {
      "id": "P039",
      "title": "42 MONROE ST - SWEDESBORO",
      "address": "42 MONROE ST",
      "city": "Swedesboro, NJ",
      "type": "Townhome - LOGAN TWP SCHOOLS",
      "beds": 4,
      "baths": 2.5,
      "status": "coming soon",
      "photo_folder_id": "1C2LhA1owWwG6A-zuJaYWI35SYgQ8sak2",
      "photo_folder_name": "42 MONROE",
      "lat": null,
      "lng": null,
      "notes": "Need coordinates - Swedesboro address"
    },
    {
      "id": "P041",
      "title": "7 SPANISH OAK CT - TURNERSVILLE",
      "address": "7 SPANISH OAK CT",
      "city": "Turnersville, NJ",
      "type": "Quiet Neighborhood - CUL-DE-SAC",
      "beds": 3,
      "baths": 2.5,
      "status": "rented",
      "photo_folder_id": "18spc0D4-i7Th1z-DooF60CFH4tJdhw6b",
      "photo_folder_name": "7 SPANISH OAK",
      "lat": null,
      "lng": null,
      "notes": "Need coordinates - Turnersville address"
    },
    {
      "id": "P035",
      "title": "107 E. NEW ST APT A",
      "address": "107 E NEW ST APT A",
      "city": "Glassboro, NJ",
      "beds": 3,
      "baths": 1,
      "status": "rented",
      "photo_folder_id": "1C2LhA1owWwG6A-zuJaYWI35SYgQ8sak2",
      "photo_folder_name": "107 EAST NEW",
      "lat": null,
      "lng": null,
      "notes": "Need coordinates - Apartment A"
    },
    {
      "id": "P036",
      "title": "107 E. NEW ST APT B",
      "address": "107 E NEW ST APT B",
      "city": "Glassboro, NJ",
      "beds": 1,
      "baths": 1,
      "status": "rented",
      "photo_folder_id": "1C2LhA1owWwG6A-zuJaYWI35SYgQ8sak2",
      "photo_folder_name": "107 EAST NEW",
      "lat": null,
      "lng": null,
      "notes": "Need coordinates - Apartment B, shares folder with P035"
    },
    {
      "id": "P037",
      "title": "109 E. NEW ST APT A",
      "address": "109 E NEW ST APT A",
      "city": "Glassboro, NJ",
      "beds": 2,
      "baths": 1,
      "status": "rented",
      "photo_folder_id": "1C2LhA1owWwG6A-zuJaYWI35SYgQ8sak2",
      "photo_folder_name": "109 EAST NEW",
      "lat": null,
      "lng": null,
      "notes": "Need coordinates - Apartment A"
    },
    {
      "id": "P038",
      "title": "109 E. NEW ST APT B",
      "address": "109 E NEW ST APT B",
      "city": "Glassboro, NJ",
      "beds": 1,
      "baths": 1,
      "status": "rented",
      "photo_folder_id": "1C2LhA1owWwG6A-zuJaYWI35SYgQ8sak2",
      "photo_folder_name": "109 EAST NEW",
      "lat": null,
      "lng": null,
      "notes": "Need coordinates - Apartment B, shares folder with P037"
    }
  ],
  "photo_folders_from_drive": [
    "1 SILVER",
    "4 SILVER",
    "4 WEST",
    "5 Silver",
    "7 NORMAL",
    "7 SPANISH OAK",
    "9 EAST NEW",
    "10 HORSESHOE",
    "11 SILVER",
    "16 WEST",
    "18 NORTH ACADEMY",
    "18 WEST",
    "24-26 NORTH ACADEMY",
    "25 SOUTH MAIN",
    "34 CARPENTER",
    "38 CARPENTER",
    "42 CARPENTER",
    "42 MONROE",
    "46 CARPENTER",
    "50 CARPENTER",
    "101 EAST NEW",
    "107 EAST NEW",
    "109 EAST NEW",
    "109 STATE",
    "110 N Main",
    "110 STATE",
    "111 EAST NEW",
    "113 State ST",
    "121 STATE",
    "122 STATE",
    "125 NORTH DELSEA",
    "127 State ST",
    "146 EAST HIGH",
    "202 CARPENTER",
    "306 HAMILTON",
    "309 WEST NEW",
    "311 WEST NEW",
    "313 Hamilton",
    "313 Silver Ave",
    "410 WEST HIGH",
    "503 NORTH MAIN",
    "511 SOUTH DELSEA",
    "601 MORRIS",
    "614 HESTON",
    "Midway Rd (New Construction)"
  ],
  "unmatched_folders": [
    "10 HORSESHOE",
    "24-26 NORTH ACADEMY",
    "25 SOUTH MAIN",
    "111 EAST NEW",
    "125 NORTH DELSEA",
    "511 SOUTH DELSEA"
  ],
  "notes": "Some photo folders in Google Drive do not have matching properties in the spreadsheet. These may be future listings or properties that were removed from active listings."
}
